{
   "data": [
      {
         "category": "Organization",
         "category_list": [
            {
               "id": "108051929285833",
               "name": "College &amp; University"
            },
            {
               "id": "198503866828628",
               "name": "Organization"
            }
         ],
         "location": {
            "street": "350 Ferst Drive, NW",
            "city": "Atlanta",
            "state": "GA",
            "country": "United States",
            "zip": "30332",
            "latitude": 33.774001263757,
            "longitude": -84.398615547865
         },
         "name": "Georgia Tech Student Center",
         "id": "107518605955318"
      },
      {
         "category": "Education",
         "category_list": [
            {
               "id": "108051929285833",
               "name": "College &amp; University"
            }
         ],
         "location": {
            "street": "",
            "city": "Atlanta",
            "state": "GA",
            "country": "United States",
            "zip": "30332",
            "latitude": 33.775516858128,
            "longitude": -84.393918255695
         },
         "name": "Georgia Tech",
         "id": "251841205227"
      },
      {
         "category": "Local business",
         "category_list": [
            {
               "id": "124818864257882",
               "name": "Donuts &amp; Bagels"
            }
         ],
         "location": {
            "street": "",
            "city": "Atlanta",
            "state": "GA",
            "country": "United States",
            "zip": "",
            "latitude": 33.774469194962,
            "longitude": -84.398820913248
         },
         "name": "Georgia Tech Dunkin Donuts",
         "id": "363539980386013"
      },
      {
         "category": "University",
         "category_list": [
            {
               "id": "108051929285833",
               "name": "College &amp; University"
            }
         ],
         "location": {
            "street": "Technology Square Research Building, 85 5th St NW",
            "city": "Atlanta",
            "state": "GA",
            "country": "United States",
            "zip": "30308",
            "latitude": 33.769405,
            "longitude": -84.402993
         },
         "name": "Digital Media at Georgia Tech",
         "id": "178153712388024"
      },
      {
         "category": "Local business",
         "category_list": [
            {
               "id": "139460309451166",
               "name": "Religious Center"
            }
         ],
         "location": {
            "street": "1155 Peachtree St NE",
            "city": "Atlanta",
            "state": "GA",
            "country": "United States",
            "zip": "30332",
            "latitude": 33.77421544822,
            "longitude": -84.398355487124
         },
         "name": "Georgia Tech Campanile",
         "id": "137982349602663"
      },
      {
         "category": "Landmark",
         "category_list": [
            {
               "id": "2503",
               "name": "Landmark"
            }
         ],
         "location": {
            "street": "",
            "city": "Atlanta",
            "state": "GA",
            "country": "United States",
            "zip": "",
            "latitude": 33.774166666667,
            "longitude": -84.398333333333
         },
         "name": "Kessler Campanile",
         "id": "103757409663177"
      },
      {
         "category": "Organization",
         "category_list": [
            {
               "id": "2600",
               "name": "Organization"
            }
         ],
         "location": {
            "street": "",
            "city": "Atlanta",
            "state": "GA",
            "country": "United States",
            "zip": "",
            "latitude": 33.774496,
            "longitude": -84.399625
         },
         "name": "The Technique",
         "id": "104122596289705"
      },
      {
         "category": "Organization",
         "category_list": [
            {
               "id": "198503866828628",
               "name": "Organization"
            }
         ],
         "location": {
            "street": "353 Ferst Dr NW",
            "city": "Atlanta",
            "state": "GA",
            "country": "United States",
            "zip": "30332",
            "latitude": 33.774340963023,
            "longitude": -84.399526035492
         },
         "name": "Campus Services at Georgia Tech",
         "id": "582348801798914"
      },
      {
         "category": "Local business",
         "category_list": [
            {
               "id": "109976259083543",
               "name": "Sports Venue &amp; Stadium"
            },
            {
               "id": "108051929285833",
               "name": "College &amp; University"
            },
            {
               "id": "365182493518892",
               "name": "School"
            }
         ],
         "location": {
            "street": "",
            "city": "Atlanta",
            "state": "GA",
            "country": "United States",
            "zip": "30313",
            "latitude": 33.772326127465,
            "longitude": -84.392612860312
         },
         "name": "Georgia Tech Bobby Dodd Stadium",
         "id": "193547050714740"
      },
      {
         "category": "Food/beverages",
         "category_list": [
            {
               "id": "2252",
               "name": "Food/Beverages"
            }
         ],
         "location": {
            "street": "1 Coca-Cola Plaza",
            "city": "Atlanta",
            "state": "GA",
            "country": "United States",
            "zip": "30313",
            "latitude": 33.7711868,
            "longitude": -84.396286
         },
         "name": "The Coca-Cola Company",
         "id": "542678889114683"
      },
      {
         "category": "Local business",
         "category_list": [
            {
               "id": "187133811318958",
               "name": "Business Services"
            }
         ],
         "location": {
            "street": "384 Northyards Blvd NW",
            "city": "Atlanta",
            "state": "GA",
            "country": "United States",
            "zip": "30313-2441",
            "latitude": 33.7685051,
            "longitude": -84.4021606
         },
         "name": "Eai",
         "id": "105726126161819"
      },
      {
         "category": "Company",
         "category_list": [
            {
               "id": "2200",
               "name": "Company"
            }
         ],
         "location": {
            "street": "665 Marietta St NW",
            "city": "Atlanta",
            "state": "GA",
            "country": "United States",
            "zip": "30030",
            "latitude": 33.7720413,
            "longitude": -84.3999329
         },
         "name": "The Wood Crew Inc",
         "id": "881664891902114"
      },
      {
         "category": "Landmark",
         "category_list": [
            {
               "id": "173883042668223",
               "name": "Theater"
            }
         ],
         "location": {
            "street": "349 Ferst Dr NW",
            "city": "Atlanta",
            "state": "GA",
            "country": "United States",
            "zip": "30318",
            "latitude": 33.775326,
            "longitude": -84.399103
         },
         "name": "DramaTech",
         "id": "108028109219721"
      },
      {
         "category": "Concert venue",
         "category_list": [
            {
               "id": "179943432047564",
               "name": "Concert Venue"
            }
         ],
         "location": {
            "street": "350 Ferst Drive, NW",
            "city": "Atlanta",
            "state": "GA",
            "country": "United States",
            "zip": "30332",
            "latitude": 33.773944989302,
            "longitude": -84.398834632936
         },
         "name": "Under the Couch",
         "id": "149975698373204"
      },
      {
         "category": "University",
         "category_list": [
            {
               "id": "365182493518892",
               "name": "School"
            }
         ],
         "location": {
            "street": "801 Atlantic Dr NW",
            "city": "Atlanta",
            "state": "GA",
            "country": "United States",
            "zip": "30332",
            "latitude": 33.77747,
            "longitude": -84.39738
         },
         "name": "Georgia Institute of Technology College of Computing",
         "id": "107925462569158"
      },
      {
         "category": "Local business",
         "category_list": [
            {
               "id": "186982054657561",
               "name": "Sports &amp; Recreation"
            }
         ],
         "location": {
            "street": "",
            "city": "Atlanta",
            "state": "GA",
            "country": "United States",
            "zip": "30313",
            "latitude": 33.771389500419,
            "longitude": -84.394083924153
         },
         "name": "Georgia Tech Pi Mile 5K",
         "id": "131591603632381"
      },
      {
         "category": "Education",
         "category_list": [
            {
               "id": "108051929285833",
               "name": "College &amp; University"
            }
         ],
         "location": {
            "street": "George W. Woodruff School of Mechanical Engineering 801 Ferst Drive Georgia Institute of Technology",
            "city": "Atlanta",
            "state": "GA",
            "country": "United States",
            "zip": "30332-0405",
            "latitude": 33.777175844107,
            "longitude": -84.400670192419
         },
         "name": "George W. Woodruff School of Mechanical Engineering",
         "id": "175550429221"
      },
      {
         "category": "Education",
         "category_list": [
            {
               "id": "151676848220295",
               "name": "Education"
            }
         ],
         "location": {
            "street": "",
            "city": "Atlanta",
            "state": "GA",
            "country": "United States",
            "zip": "30332",
            "latitude": 33.775007548865,
            "longitude": -84.393161548882
         },
         "name": "SEED",
         "id": "570562429653412"
      },
      {
         "category": "Organization",
         "category_list": [
            {
               "id": "151676848220295",
               "name": "Education"
            }
         ],
         "location": {
            "street": "",
            "city": "Atlanta",
            "state": "GA",
            "country": "United States",
            "zip": "30313",
            "latitude": 33.776833333333,
            "longitude": -84.3985
         },
         "name": "Georgia Tech main campus",
         "id": "190628554431891"
      },
      {
         "category": "Organization",
         "category_list": [
            {
               "id": "198503866828628",
               "name": "Organization"
            }
         ],
         "location": {
            "street": "777 Atlantic Dr NW",
            "city": "Atlanta",
            "state": "GA",
            "country": "United States",
            "zip": "30332",
            "latitude": 33.7757263,
            "longitude": -84.3976593
         },
         "name": "Georgia Tech IEEE",
         "id": "258050790881754"
      },
      {
         "category": "Local business",
         "category_list": [
            {
               "id": "179672275401610",
               "name": "Business Consultant"
            }
         ],
         "location": {
            "street": "790 Marietta St",
            "city": "Atlanta",
            "state": "GA",
            "country": "United States",
            "zip": "30318",
            "latitude": 33.773548,
            "longitude": -84.405042
         },
         "name": "Think BrightHouse",
         "id": "115005271886016"
      },
      {
         "category": "School",
         "category_list": [
            {
               "id": "365182493518892",
               "name": "School"
            }
         ],
         "location": {
            "street": "Georgia Institute of Technology | 686 Cherry St",
            "city": "Atlanta",
            "state": "GA",
            "country": "United States",
            "zip": "30332-0165",
            "latitude": 33.773605,
            "longitude": -84.395642
         },
         "name": "growBot Garden",
         "id": "356524168259"
      },
      {
         "category": "Non-profit organization",
         "category_list": [
            {
               "id": "108051929285833",
               "name": "College &amp; University"
            }
         ],
         "location": {
            "street": "190 N Ave NW",
            "city": "Atlanta",
            "state": "GA",
            "country": "United States",
            "zip": "30313",
            "latitude": 33.7711563,
            "longitude": -84.3934631
         },
         "name": "Georgia Tech Alumni Association",
         "id": "94410350506"
      },
      {
         "category": "University",
         "category_list": [
            {
               "id": "108051929285833",
               "name": "College &amp; University"
            }
         ],
         "location": {
            "street": "219 Uncle Heinie Way",
            "city": "Atlanta",
            "state": "GA",
            "country": "United States",
            "zip": "30332-0320",
            "latitude": 33.772348,
            "longitude": -84.395506
         },
         "name": "Georgia Tech Office of Undergraduate Admission",
         "id": "200098955626"
      },
      {
         "category": "Local business",
         "category_list": [
            {
               "id": "164243073639257",
               "name": "Hotel"
            }
         ],
         "location": {
            "street": "590 Means St NW",
            "city": "Atlanta",
            "state": "GA",
            "country": "United States",
            "zip": "30318-0508",
            "latitude": 33.7728386,
            "longitude": -84.4057999
         },
         "name": "Carriage House",
         "id": "104868642913988"
      },
      {
         "category": "Arts/entertainment/nightlife",
         "category_list": [
            {
               "id": "173883042668223",
               "name": "Theater"
            }
         ],
         "location": {
            "street": "349 Ferst Dr NW",
            "city": "Atlanta",
            "state": "GA",
            "country": "United States",
            "zip": "30332-0468",
            "latitude": 33.774975600454,
            "longitude": -84.399165571753
         },
         "name": "Ferst Center Presents",
         "id": "35150423420"
      },
      {
         "category": "Media/news/publishing",
         "category_list": [
            {
               "id": "108366235907857",
               "name": "Newspaper"
            }
         ],
         "location": {
            "street": "Student Services (Flag) Building - Rm 137",
            "city": "Atlanta",
            "state": "GA",
            "country": "United States",
            "zip": "30332",
            "latitude": 33.774612471042,
            "longitude": -84.39982327235
         },
         "name": "Technique",
         "id": "70225125088"
      },
      {
         "category": "Company",
         "category_list": [
            {
               "id": "2200",
               "name": "Company"
            }
         ],
         "location": {
            "street": "One Coca-Cola Plaza, Atlanta, GA 30313",
            "city": "Atlanta",
            "state": "GA",
            "country": "United States",
            "zip": "",
            "latitude": 33.7711868,
            "longitude": -84.396286
         },
         "name": "Coca Cola",
         "id": "1438521199796078"
      },
      {
         "category": "Community organization",
         "category_list": [
            {
               "id": "152880021441864",
               "name": "Community Organization"
            }
         ],
         "location": {
            "street": "350 Ferst Dr NW",
            "city": "Atlanta",
            "state": "GA",
            "country": "United States",
            "zip": "30332-0458",
            "latitude": 33.7779083,
            "longitude": -84.3962402
         },
         "name": "Mobilizing Opportunities for Volunteer Experience",
         "id": "227779953945902"
      },
      {
         "category": "Radio station",
         "category_list": [
            {
               "id": "1210",
               "name": "Radio Station"
            }
         ],
         "location": {
            "street": "WREK C/O WREKage 350 Ferst Dr NW Suite 2224",
            "city": "Atlanta",
            "state": "GA",
            "country": "United States",
            "zip": "30332-0630",
            "latitude": 33.7779083,
            "longitude": -84.3962402
         },
         "name": "WREKage",
         "id": "183263115037359"
      },
      {
         "category": "University",
         "category_list": [
            {
               "id": "108051929285833",
               "name": "College &amp; University"
            },
            {
               "id": "169896676390222",
               "name": "Library"
            }
         ],
         "location": {
            "street": "704 Cherry St NW",
            "city": "Atlanta",
            "state": "GA",
            "country": "United States",
            "zip": "30332-0900",
            "latitude": 33.774451801608,
            "longitude": -84.39563168874
         },
         "name": "Georgia Tech Library",
         "id": "8264471191"
      },
      {
         "category": "Education",
         "category_list": [
            {
               "id": "191921914160604",
               "name": "Educational Research"
            },
            {
               "id": "108557642554592",
               "name": "Educational Service"
            },
            {
               "id": "187751327923426",
               "name": "Educational Organization"
            }
         ],
         "location": {
            "street": "266 Fourth Street, NW",
            "city": "Atlanta",
            "state": "GA",
            "country": "United States",
            "zip": "30332",
            "latitude": 33.7753906,
            "longitude": -84.3950577
         },
         "name": "Georgia Tech Center for Academic Enrichment",
         "id": "171283176376463"
      },
      {
         "category": "Education",
         "category_list": [
            {
               "id": "108051929285833",
               "name": "College &amp; University"
            },
            {
               "id": "187751327923426",
               "name": "Educational Organization"
            },
            {
               "id": "400062273344681",
               "name": "Engineering Service"
            }
         ],
         "location": {
            "street": "Groseclose Building, 765 Ferst Dr",
            "city": "Atlanta",
            "state": "GA",
            "country": "United States",
            "zip": "30332",
            "latitude": 33.776226,
            "longitude": -84.40233
         },
         "name": "Alpha Pi Mu Industrial Engineering Honor Society - Georgia Tech Chapter",
         "id": "165635940304657"
      },
      {
         "category": "Organization",
         "category_list": [
            {
               "id": "2600",
               "name": "Organization"
            }
         ],
         "location": {
            "street": "",
            "city": "Atlanta",
            "state": "GA",
            "country": "United States",
            "zip": "",
            "latitude": 33.7740631,
            "longitude": -84.3944626,
            "located_in": "193272360706842"
         },
         "name": "Georgia Tech Economics Club",
         "id": "152864378163047"
      },
      {
         "category": "Education",
         "category_list": [
            {
               "id": "151676848220295",
               "name": "Education"
            }
         ],
         "location": {
            "street": "813 Ferst Drive, NW",
            "city": "Atlanta",
            "state": "GA",
            "country": "United States",
            "zip": "30332-0560",
            "latitude": 33.776473319189,
            "longitude": -84.399883272205
         },
         "name": "Manufacturing\u0040GT",
         "id": "162668803797435"
      },
      {
         "category": "Organization",
         "category_list": [
            {
               "id": "198503866828628",
               "name": "Organization"
            }
         ],
         "location": {
            "street": "353 Ferst Dr",
            "city": "Atlanta",
            "state": "GA",
            "country": "United States",
            "zip": "30332",
            "latitude": 33.7781448,
            "longitude": -84.3960876
         },
         "name": "Georgia Tech Leadership Education and Development",
         "id": "586411708143980"
      },
      {
         "category": "Local business",
         "category_list": [
            {
               "id": "144835265576678",
               "name": "Architect"
            }
         ],
         "location": {
            "street": "530 Means St NW",
            "city": "Atlanta",
            "state": "GA",
            "country": "United States",
            "zip": "30318-5793",
            "latitude": 33.7726746,
            "longitude": -84.405304
         },
         "name": "Ai3",
         "id": "147349195309343"
      },
      {
         "category": "Spas/beauty/personal care",
         "category_list": [
            {
               "id": "139225689474222",
               "name": "Spa, Beauty &amp; Personal Care"
            }
         ],
         "location": {
            "street": "640 Marietta St NW",
            "city": "Atlanta",
            "state": "GA",
            "country": "United States",
            "zip": "30313",
            "latitude": 33.7702866,
            "longitude": -84.3995514
         },
         "name": "Hairjuku",
         "id": "204535162952140"
      },
      {
         "category": "University",
         "category_list": [
            {
               "id": "108051929285833",
               "name": "College &amp; University"
            }
         ],
         "location": {
            "street": "801 Atlantic Dr NW",
            "city": "Atlanta",
            "state": "GA",
            "country": "United States",
            "zip": "30332",
            "latitude": 33.7761612,
            "longitude": -84.3976746
         },
         "name": "GT ACM",
         "id": "349737601805721"
      },
      {
         "category": "Business services",
         "category_list": [
            {
               "id": "2518",
               "name": "Business Services"
            }
         ],
         "location": {
            "street": "530 Means St, Suite 110",
            "city": "Atlanta",
            "state": "GA",
            "country": "United States",
            "zip": "30342",
            "latitude": 33.7726746,
            "longitude": -84.405304
         },
         "name": "Scalecraft Partners",
         "id": "575319169273189"
      },
      {
         "category": "University",
         "category_list": [
            {
               "id": "108051929285833",
               "name": "College &amp; University"
            },
            {
               "id": "216161991738736",
               "name": "Campus Building"
            }
         ],
         "location": {
            "street": "266 Fourth St NW",
            "city": "Atlanta",
            "state": "GA",
            "country": "United States",
            "zip": "30332",
            "latitude": 33.774631468312,
            "longitude": -84.396491177416
         },
         "name": "G. Wayne Clough Undergraduate Learning Commons at Georgia Tech",
         "id": "159012280810518"
      },
      {
         "category": "Local business",
         "category_list": [
            {
               "id": "273819889375819",
               "name": "Restaurant"
            }
         ],
         "location": {
            "street": "840 Marietta Street Northwest",
            "city": "Atlanta",
            "state": "GA",
            "country": "United States",
            "zip": "30318",
            "latitude": 33.77479,
            "longitude": -84.40668
         },
         "name": "Amelie's French Bakery",
         "id": "443385349164294"
      },
      {
         "category": "Health/medical/pharmaceuticals",
         "category_list": [
            {
               "id": "145118935550090",
               "name": "Medical &amp; Health"
            }
         ],
         "location": {
            "street": "353 Ferst Dr NW Suite 238",
            "city": "Atlanta",
            "state": "GA",
            "country": "United States",
            "zip": "30332",
            "latitude": 33.7730446,
            "longitude": -84.3973389
         },
         "name": "Georgia Tech Counseling Center",
         "id": "164746010214292"
      },
      {
         "category": "Organization",
         "category_list": [
            {
               "id": "198890520141354",
               "name": "Technical Institute"
            }
         ],
         "location": {
            "street": "771 Ferst Dr NW",
            "city": "Atlanta",
            "state": "GA",
            "country": "United States",
            "zip": "30332-0245",
            "latitude": 33.7762566,
            "longitude": -84.4023285
         },
         "name": "Georgia Tech MSE Alumni",
         "id": "512503188762937"
      },
      {
         "category": "Radio station",
         "category_list": [
            {
               "id": "1210",
               "name": "Radio Station"
            }
         ],
         "location": {
            "street": "350 Ferst Dr NW, Suite 2224",
            "city": "Atlanta",
            "state": "GA",
            "country": "United States",
            "zip": "30332",
            "latitude": 33.773511877016,
            "longitude": -84.397811202715
         },
         "name": "Back Alley Pork Roost on WREK Atlanta 91.1",
         "id": "191110954245877"
      },
      {
         "category": "Landmark",
         "category_list": [
            {
               "id": "191921914160604",
               "name": "Educational Research"
            }
         ],
         "location": {
            "street": "266 Ferst Drive, NW",
            "city": "Atlanta",
            "state": "GA",
            "country": "United States",
            "zip": "30332",
            "latitude": 33.777524,
            "longitude": -84.396128
         },
         "name": "Klaus Advanced Computing Building",
         "id": "126321264077815"
      },
      {
         "category": "Local business",
         "category_list": [
            {
               "id": "2500",
               "name": "Local Business"
            }
         ],
         "location": {
            "street": "530 Means St NW",
            "city": "Atlanta",
            "state": "GA",
            "country": "United States",
            "zip": "30318-5793",
            "latitude": 33.7726746,
            "longitude": -84.405304
         },
         "name": "Mojo Meeting",
         "id": "163439687007118"
      },
      {
         "category": "Local business",
         "category_list": [
            {
               "id": "198327773511962",
               "name": "Real Estate"
            }
         ],
         "location": {
            "street": "501 6th St NW",
            "city": "Atlanta",
            "state": "GA",
            "country": "United States",
            "zip": "30318",
            "latitude": 33.7773857,
            "longitude": -84.4044189
         },
         "name": "Sixth Street Apartments at Georgia Tech",
         "id": "177953015610685"
      },
      {
         "category": "Shopping/retail",
         "category_list": [
            {
               "id": "200600219953504",
               "name": "Shopping &amp; Retail"
            }
         ],
         "location": {
            "street": "Atlanta",
            "city": "Atlanta",
            "state": "GA",
            "country": "United States",
            "zip": "30318",
            "latitude": 33.776126,
            "longitude": -84.397819
         },
         "name": "creativeverbiage.com",
         "id": "110813042388764"
      },
      {
         "category": "Local business",
         "category_list": [
            {
               "id": "2500",
               "name": "Local Business"
            }
         ],
         "location": {
            "street": "",
            "city": "Atlanta",
            "state": "GA",
            "country": "United States",
            "zip": "30318",
            "latitude": 33.776080900278,
            "longitude": -84.399380433705
         },
         "name": "Georgia Tech West Campus Tailgate",
         "id": "229061740475359"
      },
      {
         "category": "Local business",
         "category_list": [
            {
               "id": "162264673824073",
               "name": "Specialty Grocery Store"
            },
            {
               "id": "124818864257882",
               "name": "Donuts &amp; Bagels"
            }
         ],
         "location": {
            "street": "350 Ferst Dr NW",
            "city": "Atlanta",
            "state": "GA",
            "country": "United States",
            "zip": "30332",
            "latitude": 33.7779083,
            "longitude": -84.3962402
         },
         "name": "Einstein Bros Bagels - Georgia Tech - Quad Cafe",
         "id": "144665222263808"
      },
      {
         "category": "Organization",
         "category_list": [
            {
               "id": "108051929285833",
               "name": "College &amp; University"
            },
            {
               "id": "181053558607965",
               "name": "Youth Organization"
            }
         ],
         "location": {
            "street": "",
            "city": "Atlanta",
            "state": "GA",
            "country": "United States",
            "zip": "",
            "latitude": 33.775007548865,
            "longitude": -84.393161548882
         },
         "name": "Georgia Tech Bridge Club",
         "id": "514662675236671"
      },
      {
         "category": "University",
         "category_list": [
            {
               "id": "108051929285833",
               "name": "College &amp; University"
            }
         ],
         "location": {
            "street": "219 Uncle Heinie Way",
            "city": "Atlanta",
            "state": "GA",
            "country": "United States",
            "zip": "30332",
            "latitude": 33.772348,
            "longitude": -84.395506
         },
         "name": "Georgia Tech OUA Alumni",
         "id": "751476261597710"
      },
      {
         "category": "Local business",
         "category_list": [
            {
               "id": "173883042668223",
               "name": "Theater"
            }
         ],
         "location": {
            "street": "349 Ferst Dr",
            "city": "Atlanta",
            "state": "GA",
            "country": "United States",
            "zip": "30318",
            "latitude": 33.774996505562,
            "longitude": -84.399182894738
         },
         "name": "Ferst Center for the Arts",
         "id": "189008831134220"
      },
      {
         "category": "Landmark",
         "category_list": [
            {
               "id": "139460309451166",
               "name": "Religious Center"
            }
         ],
         "location": {
            "street": "225 North Ave NW",
            "city": "Atlanta",
            "state": "GA",
            "country": "United States",
            "zip": "30332",
            "latitude": 33.772356,
            "longitude": -84.394838
         },
         "name": "Tech Tower",
         "id": "137739989580335"
      },
      {
         "category": "Local business",
         "category_list": [
            {
               "id": "200600219953504",
               "name": "Shopping &amp; Retail"
            }
         ],
         "location": {
            "street": "189 5th St NW",
            "city": "Atlanta",
            "state": "GA",
            "country": "United States",
            "zip": "30313-2511",
            "latitude": 33.7771988,
            "longitude": -84.3933334
         },
         "name": "Clark Judith",
         "id": "103891376344381"
      },
      {
         "category": "Sports venue",
         "category_list": [
            {
               "id": "109976259083543",
               "name": "Sports Venue &amp; Stadium"
            }
         ],
         "location": {
            "street": "150 Bobby Dodd Way NW",
            "city": "Atlanta",
            "state": "GA",
            "country": "United States",
            "zip": "30313",
            "latitude": 33.7725,
            "longitude": -84.392777777778
         },
         "name": "Bobby Dodd Stadium",
         "id": "138213542869504"
      },
      {
         "category": "Education",
         "category_list": [
            {
               "id": "108051929285833",
               "name": "College &amp; University"
            }
         ],
         "location": {
            "street": "625 Lambert St NW",
            "city": "Atlanta",
            "state": "GA",
            "country": "United States",
            "zip": "30318",
            "latitude": 33.7706108,
            "longitude": -84.4046326
         },
         "name": "Structures Lab at The Georgia Tech University",
         "id": "300289130115565"
      },
      {
         "category": "Local business",
         "category_list": [
            {
               "id": "162264673824073",
               "name": "Specialty Grocery Store"
            },
            {
               "id": "124818864257882",
               "name": "Donuts &amp; Bagels"
            }
         ],
         "location": {
            "street": "350 Ferst Dr NW",
            "city": "Atlanta",
            "state": "GA",
            "country": "United States",
            "zip": "30332",
            "latitude": 33.7779083,
            "longitude": -84.3962402
         },
         "name": "Einstein Bros Bagels - Georgia Tech - Commons",
         "id": "168055029913720"
      },
      {
         "category": "Aerospace/defense",
         "category_list": [
            {
               "id": "2244",
               "name": "Aerospace/Defense"
            }
         ],
         "location": {
            "street": "",
            "city": "Atlanta",
            "state": "GA",
            "country": "United States",
            "zip": "",
            "latitude": 33.775833333333,
            "longitude": -84.394722222222,
            "located_in": "112517705427268"
         },
         "name": "Georgia Tech Marine Robotics Group",
         "id": "542845862500306"
      },
      {
         "category": "Education",
         "category_list": [
            {
               "id": "187751327923426",
               "name": "Educational Organization"
            }
         ],
         "location": {
            "street": "801 Atlantic Dr Northwest",
            "city": "Atlanta",
            "state": "GA",
            "country": "United States",
            "zip": "30332",
            "latitude": 33.7761612,
            "longitude": -84.3976746
         },
         "name": "Georgia Tech College of Computing Outreach",
         "id": "1403259599971755"
      },
      {
         "category": "University",
         "category_list": [
            {
               "id": "108051929285833",
               "name": "College &amp; University"
            },
            {
               "id": "144835265576678",
               "name": "Architect"
            }
         ],
         "location": {
            "street": "247 Fourth St NW",
            "city": "Atlanta",
            "state": "GA",
            "country": "United States",
            "zip": "30332-0155",
            "latitude": 33.776118813101,
            "longitude": -84.395818174362
         },
         "name": "Georgia Tech College of Architecture",
         "id": "179607177694"
      },
      {
         "category": "Local business",
         "category_list": [
            {
               "id": "2500",
               "name": "Local Business"
            }
         ],
         "location": {
            "street": "350 Ferst Dr NW",
            "city": "Atlanta",
            "state": "GA",
            "country": "United States",
            "zip": "30332",
            "latitude": 33.7779083,
            "longitude": -84.3962402
         },
         "name": "GTAL",
         "id": "114345175252098"
      },
      {
         "category": "Local business",
         "category_list": [
            {
               "id": "200600219953504",
               "name": "Shopping &amp; Retail"
            }
         ],
         "location": {
            "street": "530 Means St NW",
            "city": "Atlanta",
            "state": "GA",
            "country": "United States",
            "zip": "30318-5793",
            "latitude": 33.7726746,
            "longitude": -84.405304
         },
         "name": "Springboard Creative",
         "id": "159414697413456"
      },
      {
         "category": "Local business",
         "category_list": [
            {
               "id": "2500",
               "name": "Local Business"
            }
         ],
         "location": {
            "street": "",
            "city": "Atlanta",
            "state": "GA",
            "country": "United States",
            "zip": "",
            "latitude": 33.775433733333,
            "longitude": -84.4010532
         },
         "name": "IC 209",
         "id": "140090849385997"
      },
      {
         "category": "Tours/sightseeing",
         "category_list": [
            {
               "id": "128232937246338",
               "name": "Travel &amp; Transportation"
            }
         ],
         "location": {
            "street": "",
            "city": "Atlanta",
            "state": "GA",
            "country": "United States",
            "zip": "30316",
            "latitude": 33.776126,
            "longitude": -84.397819
         },
         "name": "Benton Tours Of Atlanta",
         "id": "311631255673610"
      },
      {
         "category": "Local business",
         "category_list": [
            {
               "id": "128673187201735",
               "name": "Coffee Shop"
            }
         ],
         "location": {
            "street": "704 Cherry St NW",
            "city": "Atlanta",
            "state": "GA",
            "country": "United States",
            "zip": "30332",
            "latitude": 33.7778511,
            "longitude": -84.3956757
         },
         "name": "Starbucks",
         "id": "455634044511919"
      },
      {
         "category": "Sports venue",
         "category_list": [
            {
               "id": "184405378265823",
               "name": "Gym"
            }
         ],
         "location": {
            "street": "750 Ferst Dr NW",
            "city": "Atlanta",
            "state": "GA",
            "country": "United States",
            "zip": "30318",
            "latitude": 33.775687,
            "longitude": -84.404089
         },
         "name": "Georgia Tech Campus Recreation Center",
         "id": "103262726394439"
      },
      {
         "category": "Local business",
         "category_list": [
            {
               "id": "109976259083543",
               "name": "Sports Venue &amp; Stadium"
            }
         ],
         "location": {
            "street": "150 Bobby Dodd Way NW",
            "city": "Atlanta",
            "state": "GA",
            "country": "United States",
            "zip": "30332",
            "latitude": 33.772756611488,
            "longitude": -84.392918776358
         },
         "name": "Grant Field",
         "id": "126452234067230"
      },
      {
         "category": "Local business",
         "category_list": [
            {
               "id": "151676848220295",
               "name": "Education"
            }
         ],
         "location": {
            "street": "",
            "city": "Atlanta",
            "state": "GA",
            "country": "United States",
            "zip": "30318",
            "latitude": 33.779132886709,
            "longitude": -84.39943372553
         },
         "name": "GT Tailgate",
         "id": "558464517529281"
      },
      {
         "category": "Local business",
         "category_list": [
            {
               "id": "151676848220295",
               "name": "Education"
            }
         ],
         "location": {
            "street": "177 North Ave NW",
            "city": "Atlanta",
            "state": "GA",
            "country": "United States",
            "zip": "30313",
            "latitude": 33.771358075,
            "longitude": -84.393009925
         },
         "name": "Wardlaw Center \u0040 Georgia Tech",
         "id": "175806715767296"
      },
      {
         "category": "Education",
         "category_list": [
            {
               "id": "108051929285833",
               "name": "College &amp; University"
            }
         ],
         "location": {
            "street": "313 Ferst Dr NW",
            "city": "Atlanta",
            "state": "GA",
            "country": "United States",
            "zip": "30332",
            "latitude": 33.7778397,
            "longitude": -84.3956757
         },
         "name": "Georgia Tech BME Undergraduate Academic Office",
         "id": "382024651901262"
      },
      {
         "category": "Local business",
         "category_list": [
            {
               "id": "164886566892249",
               "name": "Advertising Agency"
            },
            {
               "id": "187133811318958",
               "name": "Business Services"
            }
         ],
         "location": {
            "street": "530 Means St NW",
            "city": "Atlanta",
            "state": "GA",
            "country": "United States",
            "zip": "30318-5793",
            "latitude": 33.7726746,
            "longitude": -84.405304
         },
         "name": "The Hauser Group",
         "id": "157971714235497"
      },
      {
         "category": "Local business",
         "category_list": [
            {
               "id": "183037088401331",
               "name": "Nursing Home"
            }
         ],
         "location": {
            "street": "384 Northyards Blvd NW",
            "city": "Atlanta",
            "state": "GA",
            "country": "United States",
            "zip": "30313-2440",
            "latitude": 33.7685051,
            "longitude": -84.4021606
         },
         "name": "Healthfield Inc Midtown",
         "id": "122966794428646"
      },
      {
         "category": "Non-profit organization",
         "category_list": [
            {
               "id": "2603",
               "name": "Non-Profit Organization"
            }
         ],
         "location": {
            "street": "",
            "city": "Atlanta",
            "state": "GA",
            "country": "United States",
            "zip": "30082",
            "latitude": 33.773795,
            "longitude": -84.406895
         },
         "name": "The Eating Disorders Information Network, EDIN",
         "id": "84849308015"
      },
      {
         "category": "Organization",
         "category_list": [
            {
               "id": "198503866828628",
               "name": "Organization"
            }
         ],
         "location": {
            "street": "801 Atlantic Dr (College of Computing 102)",
            "city": "Atlanta",
            "state": "GA",
            "country": "United States",
            "zip": "30332",
            "latitude": 33.777485,
            "longitude": -84.397642
         },
         "name": "Entertainment Software Enthusiasts",
         "id": "120246641389418"
      },
      {
         "category": "Local business",
         "category_list": [
            {
               "id": "188296324525457",
               "name": "Sandwich Shop"
            }
         ],
         "location": {
            "street": "350 Ferst Dr NW",
            "city": "Atlanta",
            "state": "GA",
            "country": "United States",
            "zip": "30332-0001",
            "latitude": 33.7779083,
            "longitude": -84.3962402
         },
         "name": "Quiznos",
         "id": "139541936093352"
      },
      {
         "category": "Local business",
         "category_list": [
            {
               "id": "2500",
               "name": "Local Business"
            }
         ],
         "location": {
            "street": "554 North Ave NW",
            "city": "Atlanta",
            "state": "GA",
            "country": "United States",
            "zip": "30318",
            "latitude": 33.7697296,
            "longitude": -84.4057236
         },
         "name": "CAMotion",
         "id": "152615404794915"
      },
      {
         "category": "Local business",
         "category_list": [
            {
               "id": "188662441155211",
               "name": "Community &amp; Government"
            }
         ],
         "location": {
            "street": "182 5th St NW",
            "city": "Atlanta",
            "state": "GA",
            "country": "United States",
            "zip": "30313-2512",
            "latitude": 33.7766418,
            "longitude": -84.3931198
         },
         "name": "Daly Al",
         "id": "161917160504437"
      },
      {
         "category": "Local business",
         "category_list": [
            {
               "id": "365182493518892",
               "name": "School"
            }
         ],
         "location": {
            "street": "531 Luckie St NW",
            "city": "Atlanta",
            "state": "GA",
            "country": "United States",
            "zip": "30313-2401",
            "latitude": 33.770031,
            "longitude": -84.3952103
         },
         "name": "Atlanta Board of Education",
         "id": "134836556565512"
      },
      {
         "category": "Political organization",
         "category_list": [
            {
               "id": "2261",
               "name": "Political Organization"
            }
         ],
         "location": {
            "street": "College Democrats of Georgia, 350 Ferst Dr Room 2211",
            "city": "Atlanta",
            "state": "GA",
            "country": "United States",
            "zip": "30332",
            "latitude": 33.773407,
            "longitude": -84.399349
         },
         "name": "College Democrats of Georgia",
         "id": "230674376946120"
      },
      {
         "category": "Local business",
         "category_list": [
            {
               "id": "187133811318958",
               "name": "Business Services"
            }
         ],
         "location": {
            "street": "535 Means St NW",
            "city": "Atlanta",
            "state": "GA",
            "country": "United States",
            "zip": "30318-5729",
            "latitude": 33.772953,
            "longitude": -84.4052734
         },
         "name": "Image Film & Video Center",
         "id": "166734516672697"
      },
      {
         "category": "Professional services",
         "category_list": [
            {
               "id": "176831012360626",
               "name": "Professional Services"
            }
         ],
         "location": {
            "street": "Atlantic Drive",
            "city": "Atlanta",
            "state": "GA",
            "country": "United States",
            "zip": "30318",
            "latitude": 33.776126,
            "longitude": -84.397819
         },
         "name": "Terri Lynne Photography",
         "id": "198437016842295"
      },
      {
         "category": "Organization",
         "category_list": [
            {
               "id": "198503866828628",
               "name": "Organization"
            }
         ],
         "location": {
            "street": "350 Ferst Dr NW",
            "city": "Atlanta",
            "state": "GA",
            "country": "United States",
            "zip": "30332",
            "latitude": 33.7779083,
            "longitude": -84.3962402
         },
         "name": "Georgia Tech African American Student Union",
         "id": "137918842969172"
      },
      {
         "category": "Local business",
         "category_list": [
            {
               "id": "115090141929327",
               "name": "Park"
            }
         ],
         "location": {
            "street": "",
            "city": "Atlanta",
            "state": "GA",
            "country": "United States",
            "zip": "30318",
            "latitude": 33.778933200223,
            "longitude": -84.402340621114
         },
         "name": "Burger Bowl Field",
         "id": "119718564744147"
      },
      {
         "category": "Arts/entertainment/nightlife",
         "category_list": [
            {
               "id": "133436743388217",
               "name": "Arts &amp; Entertainment"
            }
         ],
         "location": {
            "street": "Atlanta",
            "city": "Atlanta",
            "state": "GA",
            "country": "United States",
            "zip": "30318",
            "latitude": 33.776126,
            "longitude": -84.397819
         },
         "name": "Dj Mitch Purvis",
         "id": "488746451234871"
      },
      {
         "category": "Organization",
         "category_list": [
            {
               "id": "198503866828628",
               "name": "Organization"
            }
         ],
         "location": {
            "street": "353 Ferst Drive, Suite 137",
            "city": "Atlanta",
            "state": "GA",
            "country": "United States",
            "zip": "30332-0290",
            "latitude": 33.7781448,
            "longitude": -84.3960876
         },
         "name": "Blueprint: the Gatech Yearbook",
         "id": "115113518517851"
      },
      {
         "category": "Education",
         "category_list": [
            {
               "id": "151676848220295",
               "name": "Education"
            }
         ],
         "location": {
            "street": "Rich Building, 258 Fourth St NW",
            "city": "Atlanta",
            "state": "GA",
            "country": "United States",
            "zip": "30332-0700",
            "latitude": 33.7754402,
            "longitude": -84.394989
         },
         "name": "Georgia Tech Office of Information Technology - OIT",
         "id": "123516484374549"
      },
      {
         "category": "Local business",
         "category_list": [
            {
               "id": "124701514268099",
               "name": "Property Management"
            }
         ],
         "location": {
            "street": "150 Bobby Dodd Way NW",
            "city": "Atlanta",
            "state": "GA",
            "country": "United States",
            "zip": "30313",
            "latitude": 33.7737541,
            "longitude": -84.3921204
         },
         "name": "International Sports Properties",
         "id": "149942951716321"
      },
      {
         "category": "Education",
         "category_list": [
            {
               "id": "151676848220295",
               "name": "Education"
            }
         ],
         "location": {
            "street": "790 Atlantic Dr NW",
            "city": "Atlanta",
            "state": "GA",
            "country": "United States",
            "zip": "30332-0522",
            "latitude": 33.7761116,
            "longitude": -84.3979416
         },
         "name": "Georgia Tech Geosystems Engineering",
         "id": "241910599177418"
      },
      {
         "category": "Political organization",
         "category_list": [
            {
               "id": "373543049350668",
               "name": "Political Organization"
            }
         ],
         "location": {
            "street": "350 Ferst Dr NW, Rm 2211",
            "city": "Atlanta",
            "state": "GA",
            "country": "United States",
            "zip": "30332",
            "latitude": 33.7722778,
            "longitude": -84.3967285
         },
         "name": "College Democrats of Georgia Tech",
         "id": "223859880979916"
      },
      {
         "category": "Energy/utility",
         "category_list": [
            {
               "id": "2238",
               "name": "Energy/Utility"
            }
         ],
         "location": {
            "street": "D M Smith Building, 685 Cherry St",
            "city": "Atlanta",
            "state": "GA",
            "country": "United States",
            "zip": "30332",
            "latitude": 33.773573,
            "longitude": -84.395313
         },
         "name": "Climate and Energy Policy Laboratory at Georgia Tech",
         "id": "141181849321422"
      },
      {
         "category": "Sports venue",
         "category_list": [
            {
               "id": "139721016091877",
               "name": "Outdoor Recreation"
            }
         ],
         "location": {
            "street": "255 Ferst Dr NW",
            "city": "Atlanta",
            "state": "GA",
            "country": "United States",
            "zip": "30318",
            "latitude": 33.777491,
            "longitude": -84.394771
         },
         "name": "Russ Chandler Stadium",
         "id": "115930181788576"
      },
      {
         "category": "Non-profit organization",
         "category_list": [
            {
               "id": "2603",
               "name": "Non-Profit Organization"
            }
         ],
         "location": {
            "street": "350 Ferst Dr NW",
            "city": "Atlanta",
            "state": "GA",
            "country": "United States",
            "zip": "30318",
            "latitude": 33.7779083,
            "longitude": -84.3962402
         },
         "name": "For The Kids at Georgia Tech",
         "id": "140244929345219"
      },
      {
         "category": "Local business",
         "category_list": [
            {
               "id": "198890520141354",
               "name": "Technical Institute"
            }
         ],
         "location": {
            "street": "",
            "city": "Atlanta",
            "state": "GA",
            "country": "United States",
            "zip": "30318",
            "latitude": 33.775786794302,
            "longitude": -84.395427954561
         },
         "name": "COA",
         "id": "152791474747653"
      },
      {
         "category": "Arts/entertainment/nightlife",
         "category_list": [
            {
               "id": "214668188548441",
               "name": "Clothing Supply &amp; Distribution"
            }
         ],
         "location": {
            "street": "Saturn 7 St",
            "city": "Atlanta",
            "state": "GA",
            "country": "United States",
            "zip": "30318",
            "latitude": 33.769857,
            "longitude": -84.403209
         },
         "name": "O.A.K-free hand drawn caps",
         "id": "418737098266786"
      },
      {
         "category": "Local business",
         "category_list": [
            {
               "id": "2500",
               "name": "Local Business"
            }
         ],
         "location": {
            "street": "818 Marietta St NW",
            "city": "Atlanta",
            "state": "GA",
            "country": "United States",
            "zip": "30318",
            "latitude": 33.7745895,
            "longitude": -84.4065475
         },
         "name": "Bookhouse Group, Inc.",
         "id": "112583538814715"
      },
      {
         "category": "Local business",
         "category_list": [
            {
               "id": "199819723365845",
               "name": "Baptist Church"
            }
         ],
         "location": {
            "street": "740 Techwood Dr NW",
            "city": "Atlanta",
            "state": "GA",
            "country": "United States",
            "zip": "30313-2533",
            "latitude": 33.7749748,
            "longitude": -84.3921127
         },
         "name": "Baptist Collegic Ministries At Georgia Tech",
         "id": "126601360726973"
      },
      {
         "category": "University",
         "category_list": [
            {
               "id": "108051929285833",
               "name": "College &amp; University"
            }
         ],
         "location": {
            "street": "871 McMillian St, NW",
            "city": "Atlanta",
            "state": "GA",
            "country": "United States",
            "zip": "30332-0550",
            "latitude": 33.7788086,
            "longitude": -84.4040833
         },
         "name": "Georgia Tech Conference Services",
         "id": "8625533315"
      },
      {
         "category": "Local business",
         "category_list": [
            {
               "id": "149998721725634",
               "name": "Automotive Repair"
            }
         ],
         "location": {
            "street": "524 Marietta St NW",
            "city": "Atlanta",
            "state": "GA",
            "country": "United States",
            "zip": "30313-2414",
            "latitude": 33.7672501,
            "longitude": -84.3980789
         },
         "name": "Carter Mike",
         "id": "168346013179307"
      },
      {
         "category": "Education",
         "category_list": [
            {
               "id": "151676848220295",
               "name": "Education"
            }
         ],
         "location": {
            "street": "245 Fourth Street, Room 152",
            "city": "Atlanta",
            "state": "GA",
            "country": "United States",
            "zip": "30332",
            "latitude": 33.7757072,
            "longitude": -84.3950653
         },
         "name": "College of Architecture Library, Georgia Tech",
         "id": "624365137610033"
      },
      {
         "category": "Local business",
         "category_list": [
            {
               "id": "199405806739848",
               "name": "Public School"
            },
            {
               "id": "108557642554592",
               "name": "Educational Service"
            }
         ],
         "location": {
            "street": "531 Luckie St NW",
            "city": "Atlanta",
            "state": "GA",
            "country": "United States",
            "zip": "30313-2401",
            "latitude": 33.770031,
            "longitude": -84.3952103
         },
         "name": "Schools Adamsville Elementary School",
         "id": "159156680771211"
      },
      {
         "category": "Food/beverages",
         "category_list": [
            {
               "id": "2252",
               "name": "Food/Beverages"
            }
         ],
         "location": {
            "street": "350 Ferst Dr NW",
            "city": "Atlanta",
            "state": "GA",
            "country": "United States",
            "zip": "30332",
            "latitude": 33.7779083,
            "longitude": -84.3962402
         },
         "name": "Georgia Tech Dining Services",
         "id": "66190303054"
      },
      {
         "category": "Local business",
         "category_list": [
            {
               "id": "187393124625179",
               "name": "Web Design"
            }
         ],
         "location": {
            "street": "512 Means St NW",
            "city": "Atlanta",
            "state": "GA",
            "country": "United States",
            "zip": "30318-5788",
            "latitude": 33.7726135,
            "longitude": -84.4050903
         },
         "name": "Tork Interactive",
         "id": "115611371831510"
      },
      {
         "category": "Club",
         "category_list": [
            {
               "id": "191478144212980",
               "name": "Night Club"
            },
            {
               "id": "110186619064706",
               "name": "Comedy Club"
            }
         ],
         "location": {
            "street": "800 Marietta St NW",
            "city": "Atlanta",
            "state": "GA",
            "country": "United States",
            "zip": "30318",
            "latitude": 33.7737808,
            "longitude": -84.4059296
         },
         "name": "Uptown Comedy Corner",
         "id": "153668212899"
      },
      {
         "category": "Local business",
         "category_list": [
            {
               "id": "108427109235243",
               "name": "Home Improvement"
            }
         ],
         "location": {
            "street": "799 Marietta St NW",
            "city": "Atlanta",
            "state": "GA",
            "country": "United States",
            "zip": "30318-5750",
            "latitude": 33.7745209,
            "longitude": -84.4050827
         },
         "name": "Atlantic Sheet Metal Corp",
         "id": "116580775068169"
      },
      {
         "category": "Local business",
         "category_list": [
            {
               "id": "179672275401610",
               "name": "Business Consultant"
            }
         ],
         "location": {
            "street": "530 Means St NW",
            "city": "Atlanta",
            "state": "GA",
            "country": "United States",
            "zip": "30318-5793",
            "latitude": 33.7726746,
            "longitude": -84.405304
         },
         "name": "V4 Consulting",
         "id": "167371089942703"
      },
      {
         "category": "Local business",
         "category_list": [
            {
               "id": "187623434605561",
               "name": "Adult Entertainment"
            }
         ],
         "location": {
            "street": "806 Marietta St NW",
            "city": "Atlanta",
            "state": "GA",
            "country": "United States",
            "zip": "30318",
            "latitude": 33.774135182135,
            "longitude": -84.406078022491
         },
         "name": "Dancer Elite",
         "id": "209493459091437"
      },
      {
         "category": "Education",
         "category_list": [
            {
               "id": "151676848220295",
               "name": "Education"
            }
         ],
         "location": {
            "street": "801 Atlantic Drive, College of Computing Building #302",
            "city": "Atlanta",
            "state": "GA",
            "country": "United States",
            "zip": "30332",
            "latitude": 33.777485,
            "longitude": -84.397642
         },
         "name": "Georgia Tech's Barcelona Summer Program",
         "id": "331068521348"
      },
      {
         "category": "Local business",
         "category_list": [
            {
               "id": "163090273743732",
               "name": "Commercial Bank"
            }
         ],
         "location": {
            "street": "523 Luckie St NW",
            "city": "Atlanta",
            "state": "GA",
            "country": "United States",
            "zip": "30313-2401",
            "latitude": 33.7691116,
            "longitude": -84.3955383
         },
         "name": "SunTrust Bank",
         "id": "168002013212235"
      },
      {
         "category": "Non-profit organization",
         "category_list": [
            {
               "id": "197384240287028",
               "name": "Art Gallery"
            },
            {
               "id": "186825111351005",
               "name": "Tourist Attraction"
            },
            {
               "id": "197817313562497",
               "name": "Museum"
            }
         ],
         "location": {
            "street": "535 Means St NW",
            "city": "Atlanta",
            "state": "GA",
            "country": "United States",
            "zip": "30318",
            "latitude": 33.772953,
            "longitude": -84.4052734
         },
         "name": "Atlanta Contemporary",
         "id": "149351583357"
      },
      {
         "category": "Local business",
         "category_list": [
            {
               "id": "187937741228885",
               "name": "Electronics Store"
            }
         ],
         "location": {
            "street": "590 Means St NW",
            "city": "Atlanta",
            "state": "GA",
            "country": "United States",
            "zip": "30318",
            "latitude": 33.7728386,
            "longitude": -84.4057999
         },
         "name": "Centerpoint Direct",
         "id": "403480856508318"
      },
      {
         "category": "Media/news/publishing",
         "category_list": [
            {
               "id": "2233",
               "name": "Media/News/Publishing"
            }
         ],
         "location": {
            "street": "Smithgall Building (Flag Building) 353 Ferst Dr NW",
            "city": "Atlanta",
            "state": "GA",
            "country": "United States",
            "zip": "30332-0290",
            "latitude": 33.773423,
            "longitude": -84.399458
         },
         "name": "Georgia Tech Student Media",
         "id": "659959514029567"
      },
      {
         "category": "Local business",
         "category_list": [
            {
               "id": "133436743388217",
               "name": "Arts &amp; Entertainment"
            }
         ],
         "location": {
            "street": "590 Means St NW",
            "city": "Atlanta",
            "state": "GA",
            "country": "United States",
            "zip": "30318-0522",
            "latitude": 33.7728386,
            "longitude": -84.4057999
         },
         "name": "Alcon Entertainment",
         "id": "157631740935319"
      },
      {
         "category": "Non-profit organization",
         "category_list": [
            {
               "id": "139460309451166",
               "name": "Religious Center"
            }
         ],
         "location": {
            "street": "740 Marietta St NW",
            "city": "Atlanta",
            "state": "GA",
            "country": "United States",
            "zip": "30318",
            "latitude": 33.77281387756,
            "longitude": -84.402988524052
         },
         "name": "The Salvation Army - Atlanta, GA  ARC",
         "id": "234513059917004"
      },
      {
         "category": "Landmark",
         "category_list": [
            {
               "id": "197097220301977",
               "name": "Historical Place"
            }
         ],
         "location": {
            "street": "",
            "city": "Atlanta",
            "state": "GA",
            "country": "United States",
            "zip": "",
            "latitude": 33.767357,
            "longitude": -84.400277
         },
         "name": "Southern Railway North Avenue Yards Historic District",
         "id": "124009861014673"
      },
      {
         "category": "Local business",
         "category_list": [
            {
               "id": "175962259115742",
               "name": "Food &amp; Beverage Service &amp; Distribution"
            }
         ],
         "location": {
            "street": "384 Northyards Blvd NW",
            "city": "Atlanta",
            "state": "GA",
            "country": "United States",
            "zip": "30313-2440",
            "latitude": 33.7685051,
            "longitude": -84.4021606
         },
         "name": "Coca-Cola Ko Lab",
         "id": "162523350443870"
      },
      {
         "category": "Local business",
         "category_list": [
            {
               "id": "2500",
               "name": "Local Business"
            }
         ],
         "location": {
            "street": "",
            "city": "Atlanta",
            "state": "GA",
            "country": "United States",
            "zip": "30313",
            "latitude": 33.77717655,
            "longitude": -84.39163595
         },
         "name": "PGA FedEx Cup Atlanta GA",
         "id": "128168673949540"
      },
      {
         "category": "Sports/recreation/activities",
         "category_list": [
            {
               "id": "198325860180715",
               "name": "Martial Arts"
            },
            {
               "id": "191681657527859",
               "name": "Fitness Center"
            },
            {
               "id": "365182493518892",
               "name": "School"
            }
         ],
         "location": {
            "street": "Anywhere",
            "city": "Atlanta",
            "state": "GA",
            "country": "United States",
            "zip": "30034",
            "latitude": 33.7702713,
            "longitude": -84.4045486
         },
         "name": "Aquino Institute Of The Martial Arts Tae Sho Do",
         "id": "225133337533952"
      },
      {
         "category": "Local business",
         "category_list": [
            {
               "id": "192998244062607",
               "name": "Sports Center"
            }
         ],
         "location": {
            "street": "600 Means St NW",
            "city": "Atlanta",
            "state": "GA",
            "country": "United States",
            "zip": "30318-5799",
            "latitude": 33.7745018,
            "longitude": -84.4073792
         },
         "name": "Camp Twin Lakes",
         "id": "117270171625561"
      },
      {
         "category": "Local business",
         "category_list": [
            {
               "id": "2500",
               "name": "Local Business"
            }
         ],
         "location": {
            "street": "531 Turner Pl NW",
            "city": "Atlanta",
            "state": "GA",
            "country": "United States",
            "zip": "30332",
            "latitude": 33.7788048,
            "longitude": -84.4048386
         },
         "name": "Folk Residence Hall",
         "id": "140810319290024"
      },
      {
         "category": "Local business",
         "category_list": [
            {
               "id": "2500",
               "name": "Local Business"
            }
         ],
         "location": {
            "street": "",
            "city": "Atlanta",
            "state": "GA",
            "country": "United States",
            "zip": "",
            "latitude": 33.7763692797,
            "longitude": -84.4072516252
         },
         "name": "The Somber Reptile",
         "id": "165524640158895"
      },
      {
         "category": "Restaurant/cafe",
         "category_list": [
            {
               "id": "273819889375819",
               "name": "Restaurant"
            }
         ],
         "location": {
            "street": "842 MARIETTA STREET",
            "city": "Atlanta",
            "state": "GA",
            "country": "United States",
            "zip": "30318",
            "latitude": 33.7753181,
            "longitude": -84.4069824
         },
         "name": "**** LA VIDA ****",
         "id": "119483281418514"
      },
      {
         "category": "Organization",
         "category_list": [
            {
               "id": "198503866828628",
               "name": "Organization"
            }
         ],
         "location": {
            "street": "353 Ferst Dr NW",
            "city": "Atlanta",
            "state": "GA",
            "country": "United States",
            "zip": "30332",
            "latitude": 33.7781448,
            "longitude": -84.3960876
         },
         "name": "The National Pan-Hellenic Council at Georgia Tech",
         "id": "142547409233086"
      },
      {
         "category": "Local business",
         "category_list": [
            {
               "id": "192803624072087",
               "name": "Fast Food Restaurant"
            }
         ],
         "location": {
            "street": "150 Bobby Dodd Way NW",
            "city": "Atlanta",
            "state": "GA",
            "country": "United States",
            "zip": "30313",
            "latitude": 33.77387,
            "longitude": -84.39204
         },
         "name": "McDonald's",
         "id": "756162894493581"
      },
      {
         "category": "Local business",
         "category_list": [
            {
               "id": "2500",
               "name": "Local Business"
            }
         ],
         "location": {
            "street": "590 Means St NW",
            "city": "Atlanta",
            "state": "GA",
            "country": "United States",
            "zip": "30318-0508",
            "latitude": 33.7728386,
            "longitude": -84.4057999
         },
         "name": "Adcock & Associates",
         "id": "102978596435826"
      },
      {
         "category": "Automotive",
         "category_list": [
            {
               "id": "2509",
               "name": "Automotive"
            }
         ],
         "location": {
            "street": "Bankhead/Mobile",
            "city": "Atlanta",
            "state": "GA",
            "country": "United States",
            "zip": "30318",
            "latitude": 33.773409,
            "longitude": -84.405105
         },
         "name": "Hustle Vision",
         "id": "302183253274432"
      },
      {
         "category": "Education",
         "category_list": [
            {
               "id": "2250",
               "name": "Education"
            }
         ],
         "location": {
            "street": "681 Cherry St",
            "city": "Atlanta",
            "state": "GA",
            "country": "United States",
            "zip": "30332",
            "latitude": 33.7734108,
            "longitude": -84.3953247
         },
         "name": "OMED: Educational Services",
         "id": "495837537138178"
      },
      {
         "category": "Local business",
         "category_list": [
            {
               "id": "197871390225897",
               "name": "Cafe"
            }
         ],
         "location": {
            "street": "826 Marietta St NW",
            "city": "Atlanta",
            "state": "GA",
            "country": "United States",
            "zip": "30318-5573",
            "latitude": 33.7749405,
            "longitude": -84.4067688
         },
         "name": "Thumbs Up Diner",
         "id": "100870366624934"
      },
      {
         "category": "University",
         "category_list": [
            {
               "id": "365182493518892",
               "name": "School"
            }
         ],
         "location": {
            "street": "781 Marietta St NW",
            "city": "Atlanta",
            "state": "GA",
            "country": "United States",
            "zip": "30318",
            "latitude": 33.77365,
            "longitude": -84.40476
         },
         "name": "Ivan Allen College of Liberal Arts",
         "id": "112282822116265"
      },
      {
         "category": "Local business",
         "category_list": [
            {
               "id": "2500",
               "name": "Local Business"
            }
         ],
         "location": {
            "street": "530 Means St NW Suite G-10",
            "city": "Atlanta",
            "state": "GA",
            "country": "United States",
            "zip": "30318",
            "latitude": 33.77233,
            "longitude": -84.404228
         },
         "name": "a|i|m Marketing Solutions",
         "id": "264967567411"
      },
      {
         "category": "Local business",
         "category_list": [
            {
               "id": "199405806739848",
               "name": "Public School"
            }
         ],
         "location": {
            "street": "",
            "city": "Atlanta",
            "state": "GA",
            "country": "United States",
            "zip": "",
            "latitude": 33.776681719352,
            "longitude": -84.39617572806
         },
         "name": "Klaus 1443",
         "id": "464294340283301"
      },
      {
         "category": "Local business",
         "category_list": [
            {
               "id": "200600219953504",
               "name": "Shopping &amp; Retail"
            }
         ],
         "location": {
            "street": "385 Northyards Blvd NW",
            "city": "Atlanta",
            "state": "GA",
            "country": "United States",
            "zip": "30313-2451",
            "latitude": 33.7687759,
            "longitude": -84.4021759
         },
         "name": "Taylor Letter Service",
         "id": "155238324511821"
      },
      {
         "category": "Local business",
         "category_list": [
            {
               "id": "187133811318958",
               "name": "Business Services"
            }
         ],
         "location": {
            "street": "530 Means St NW",
            "city": "Atlanta",
            "state": "GA",
            "country": "United States",
            "zip": "30318-5793",
            "latitude": 33.7726746,
            "longitude": -84.405304
         },
         "name": "Covendis Technologies",
         "id": "161070457251180"
      },
      {
         "category": "Local business",
         "category_list": [
            {
               "id": "365182493518892",
               "name": "School"
            }
         ],
         "location": {
            "street": "777 Techwood Dr NW",
            "city": "Atlanta",
            "state": "GA",
            "country": "United States",
            "zip": "30313-2536",
            "latitude": 33.7758789,
            "longitude": -84.3916168
         },
         "name": "Theta XI Frat",
         "id": "159753737388638"
      },
      {
         "category": "Local business",
         "category_list": [
            {
               "id": "2500",
               "name": "Local Business"
            }
         ],
         "location": {
            "street": "755 Marietta St NW",
            "city": "Atlanta",
            "state": "GA",
            "country": "United States",
            "zip": "30318-5750",
            "latitude": 33.7736397,
            "longitude": -84.403511
         },
         "name": "Sommers & Sommers",
         "id": "157085250997765"
      },
      {
         "category": "Automotive",
         "category_list": [
            {
               "id": "186712678028215",
               "name": "Automotive Customizing"
            }
         ],
         "location": {
            "street": "584-B Marietta St",
            "city": "Atlanta",
            "state": "GA",
            "country": "United States",
            "zip": "30313",
            "latitude": 33.7692909,
            "longitude": -84.3988266
         },
         "name": "Jesse Spade",
         "id": "212352365451538"
      },
      {
         "category": "Local business",
         "category_list": [
            {
               "id": "2500",
               "name": "Local Business"
            }
         ],
         "location": {
            "street": "255 Ferst Dr NW",
            "city": "Atlanta",
            "state": "GA",
            "country": "United States",
            "zip": "30301",
            "latitude": 33.777085,
            "longitude": -84.394949
         },
         "name": "Big League Broadcastihg-Gt Football Stadium",
         "id": "164296770256052"
      },
      {
         "category": "Local business",
         "category_list": [
            {
               "id": "188977087789280",
               "name": "Paving &amp; Asphalt Service"
            }
         ],
         "location": {
            "street": "642 Northside Dr NW",
            "city": "Atlanta",
            "state": "GA",
            "country": "United States",
            "zip": "30318-6928",
            "latitude": 33.7718315,
            "longitude": -84.4073105
         },
         "name": "Price & Sons Grading & Demolition",
         "id": "126434694077743"
      },
      {
         "category": "Local business",
         "category_list": [
            {
               "id": "191684877517919",
               "name": "Publisher"
            }
         ],
         "location": {
            "street": "818 Marietta St NW",
            "city": "Atlanta",
            "state": "GA",
            "country": "United States",
            "zip": "30318-5538",
            "latitude": 33.7745895,
            "longitude": -84.4065475
         },
         "name": "The Zenner Group",
         "id": "161971057166264"
      },
      {
         "category": "University",
         "category_list": [
            {
               "id": "192049437499122",
               "name": "Residence"
            }
         ],
         "location": {
            "street": "",
            "city": "Atlanta",
            "state": "GA",
            "country": "United States",
            "zip": "30303",
            "latitude": 33.7768333333,
            "longitude": -84.3985
         },
         "name": "Cloudman Hall",
         "id": "103117903062409"
      },
      {
         "category": "Local business",
         "category_list": [
            {
               "id": "273819889375819",
               "name": "Restaurant"
            }
         ],
         "location": {
            "street": "Georgia Institute of Technology",
            "city": "Atlanta",
            "state": "GA",
            "country": "United States",
            "zip": "30332",
            "latitude": 33.772733347404,
            "longitude": -84.394547266223
         },
         "name": "Junior's Grill",
         "id": "150922671599682"
      },
      {
         "category": "Local business",
         "category_list": [
            {
               "id": "128673187201735",
               "name": "Coffee Shop"
            }
         ],
         "location": {
            "street": "311 Ferst Dr NW",
            "city": "Atlanta",
            "state": "GA",
            "country": "United States",
            "zip": "30318",
            "latitude": 33.779513527765,
            "longitude": -84.396459569806
         },
         "name": "Seattles Best",
         "id": "171799376163503"
      },
      {
         "category": "Non-profit organization",
         "category_list": [
            {
               "id": "165264720195968",
               "name": "Sorority &amp; Fraternity"
            }
         ],
         "location": {
            "street": "764 Fowler St NW",
            "city": "Atlanta",
            "state": "GA",
            "country": "United States",
            "zip": "30313",
            "latitude": 33.77568331397,
            "longitude": -84.39437563704
         },
         "name": "Beta Theta Pi - Georgia Tech",
         "id": "400662203382718"
      },
      {
         "category": "Local business",
         "category_list": [
            {
               "id": "162878243763233",
               "name": "Commercial Real Estate"
            }
         ],
         "location": {
            "street": "501 Means St",
            "city": "Atlanta",
            "state": "GA",
            "country": "United States",
            "zip": "30318",
            "latitude": 33.7728348,
            "longitude": -84.4048691
         },
         "name": "Means Street",
         "id": "107066072708672"
      },
      {
         "category": "Shopping/retail",
         "category_list": [
            {
               "id": "170241263022353",
               "name": "Men&#039;s Clothing Store"
            },
            {
               "id": "128753240528981",
               "name": "Women&#039;s Clothing Store"
            },
            {
               "id": "179576078750378",
               "name": "Fashion Designer"
            }
         ],
         "location": {
            "street": "768 Marietta St NW",
            "city": "Atlanta",
            "state": "GA",
            "country": "United States",
            "zip": "30318",
            "latitude": 33.7733154,
            "longitude": -84.4041977
         },
         "name": "Buckhead Thread",
         "id": "372331689553721"
      },
      {
         "category": "Local business",
         "category_list": [
            {
               "id": "188296324525457",
               "name": "Sandwich Shop"
            }
         ],
         "location": {
            "street": "350 Ferst Dr NW",
            "city": "Atlanta",
            "state": "GA",
            "country": "United States",
            "zip": "30332",
            "latitude": 33.7779083,
            "longitude": -84.3962402
         },
         "name": "Quiznos - Georgia Tech Food Court",
         "id": "172182676201842"
      },
      {
         "category": "Landmark",
         "category_list": [
            {
               "id": "197097220301977",
               "name": "Historical Place"
            }
         ],
         "location": {
            "street": "768 Marietta St NW",
            "city": "Atlanta",
            "state": "GA",
            "country": "United States",
            "zip": "30318",
            "latitude": 33.7755555556,
            "longitude": -84.4044444444
         },
         "name": "Hotel Roxy",
         "id": "616951215019379"
      },
      {
         "category": "Local business",
         "category_list": [
            {
               "id": "199377230079198",
               "name": "Mexican Restaurant"
            }
         ],
         "location": {
            "street": "764 Marietta St NW",
            "city": "Atlanta",
            "state": "GA",
            "country": "United States",
            "zip": "30318-3626",
            "latitude": 33.773336,
            "longitude": -84.403811
         },
         "name": "Thelma's Kitchen",
         "id": "624384020996634"
      },
      {
         "category": "Local business",
         "category_list": [
            {
               "id": "181814521855864",
               "name": "Locksmith"
            }
         ],
         "location": {
            "street": "384 Northyards Blvd NW",
            "city": "Atlanta",
            "state": "GA",
            "country": "United States",
            "zip": "30313-2440",
            "latitude": 33.7685051,
            "longitude": -84.4021606
         },
         "name": "All Locksmith Services",
         "id": "164076266953607"
      },
      {
         "category": "Business services",
         "category_list": [
            {
               "id": "210979565595898",
               "name": "Mobile Phone Shop"
            }
         ],
         "location": {
            "street": "337212 Georgia Tech Station",
            "city": "Atlanta",
            "state": "GA",
            "country": "United States",
            "zip": "30332",
            "latitude": 33.7782784,
            "longitude": -84.3987808
         },
         "name": "GTiPhone",
         "id": "684139075020599"
      },
      {
         "category": "Non-profit organization",
         "category_list": [
            {
               "id": "187714557925874",
               "name": "Religious Organization"
            },
            {
               "id": "139460309451166",
               "name": "Religious Center"
            },
            {
               "id": "108051929285833",
               "name": "College &amp; University"
            }
         ],
         "location": {
            "street": "189 Fourth Street, NW - (Corner of 4th and Fowler)",
            "city": "Atlanta",
            "state": "GA",
            "country": "United States",
            "zip": "30313-2505",
            "latitude": 33.776249907082,
            "longitude": -84.393353533798
         },
         "name": "Wesley Foundation at Georgia Tech",
         "id": "348411335544"
      },
      {
         "category": "Shopping/retail",
         "category_list": [
            {
               "id": "200600219953504",
               "name": "Shopping &amp; Retail"
            }
         ],
         "location": {
            "street": "814 Marietta St NW",
            "city": "Atlanta",
            "state": "GA",
            "country": "United States",
            "zip": "30318",
            "latitude": 33.7745895,
            "longitude": -84.4064255
         },
         "name": "Motoretta Atlanta/ Vespa Of Atlanta",
         "id": "205730789465890"
      },
      {
         "category": "Organization",
         "category_list": [
            {
               "id": "200600219953504",
               "name": "Shopping &amp; Retail"
            }
         ],
         "location": {
            "street": "10 W Peachtree Pl NW",
            "city": "Atlanta",
            "state": "GA",
            "country": "United States",
            "zip": "30308",
            "latitude": 33.771,
            "longitude": -84.3966
         },
         "name": "Coca-Cola Enterprises",
         "id": "105567649477081"
      },
      {
         "category": "Local business",
         "category_list": [
            {
               "id": "273819889375819",
               "name": "Restaurant"
            }
         ],
         "location": {
            "street": "710 Marietta St NW",
            "city": "Atlanta",
            "state": "GA",
            "country": "United States",
            "zip": "30318-5726",
            "latitude": 33.7721786,
            "longitude": -84.4019318
         },
         "name": "Wawa Wing",
         "id": "118024211592047"
      },
      {
         "category": "Local business",
         "category_list": [
            {
               "id": "139750396088115",
               "name": "Musical Instrument Store"
            }
         ],
         "location": {
            "street": "814 Marietta St NW",
            "city": "Atlanta",
            "state": "GA",
            "country": "United States",
            "zip": "30318-5538",
            "latitude": 33.7745895,
            "longitude": -84.4064255
         },
         "name": "Atlanta Bass Gallery",
         "id": "120618111328868"
      },
      {
         "category": "Landmark",
         "category_list": [
            {
               "id": "108051929285833",
               "name": "College &amp; University"
            }
         ],
         "location": {
            "street": "266 Ferst Dr NW",
            "city": "Atlanta",
            "state": "GA",
            "country": "United States",
            "zip": "30332",
            "latitude": 33.777524,
            "longitude": -84.3961
         },
         "name": "Georgia Institute of Technology School of Computational Science & Engineering",
         "id": "296109413930333"
      },
      {
         "category": "Local business",
         "category_list": [
            {
               "id": "179167895459033",
               "name": "Thai Restaurant"
            }
         ],
         "location": {
            "street": "768 Marietta St NW",
            "city": "Atlanta",
            "state": "GA",
            "country": "United States",
            "zip": "30318",
            "latitude": 33.773155515,
            "longitude": -84.40389301125
         },
         "name": "Spoon Restaurant",
         "id": "115035378575363"
      },
      {
         "category": "Local business",
         "category_list": [
            {
               "id": "175898962454294",
               "name": "Dog Training"
            }
         ],
         "location": {
            "street": "515 Means St NW Suite B",
            "city": "Atlanta",
            "state": "GA",
            "country": "United States",
            "zip": "30318",
            "latitude": 33.7727432,
            "longitude": -84.4045258
         },
         "name": "Canine PhD",
         "id": "118866116969"
      },
      {
         "category": "Non-profit organization",
         "category_list": [
            {
               "id": "2603",
               "name": "Non-Profit Organization"
            }
         ],
         "location": {
            "street": "600 Means St Suite 210",
            "city": "Atlanta",
            "state": "GA",
            "country": "United States",
            "zip": "30318",
            "latitude": 33.7745018,
            "longitude": -84.4073792
         },
         "name": "Points of Light Civic Accelerator",
         "id": "1431991890408805"
      },
      {
         "category": "Consulting/business services",
         "category_list": [
            {
               "id": "2248",
               "name": "Consulting/Business Services"
            }
         ],
         "location": {
            "street": "530 Means St Suite 120",
            "city": "Atlanta",
            "state": "GA",
            "country": "United States",
            "zip": "30308",
            "latitude": 33.7726746,
            "longitude": -84.405304
         },
         "name": "AskRemco",
         "id": "221033287930022"
      },
      {
         "category": "Professional services",
         "category_list": [
            {
               "id": "181475575221097",
               "name": "Photographer"
            }
         ],
         "location": {
            "street": "Atlanta",
            "city": "Atlanta",
            "state": "GA",
            "country": "United States",
            "zip": "30318",
            "latitude": 33.776126,
            "longitude": -84.397819
         },
         "name": "Smarti photography",
         "id": "160091110823048"
      },
      {
         "category": "Restaurant/cafe",
         "category_list": [
            {
               "id": "273819889375819",
               "name": "Restaurant"
            }
         ],
         "location": {
            "street": "315 Ferst Dr",
            "city": "Atlanta",
            "state": "GA",
            "country": "United States",
            "zip": "30332",
            "latitude": 33.7786467,
            "longitude": -84.3970505
         },
         "name": "The Colony Bistro & Lab Cafe",
         "id": "344728875621012"
      },
      {
         "category": "Organization",
         "category_list": [
            {
               "id": "198503866828628",
               "name": "Organization"
            },
            {
               "id": "365182493518892",
               "name": "School"
            }
         ],
         "location": {
            "street": "720 Fowler St NW",
            "city": "Atlanta",
            "state": "GA",
            "country": "United States",
            "zip": "30313",
            "latitude": 33.7743683,
            "longitude": -84.3941193
         },
         "name": "Chi Phi Fraternity at Georgia Tech",
         "id": "241385692622481"
      },
      {
         "category": "Concert venue",
         "category_list": [
            {
               "id": "192119584190796",
               "name": "Event"
            }
         ],
         "location": {
            "street": "350 Ferst Dr",
            "city": "Atlanta",
            "state": "GA",
            "country": "United States",
            "zip": "30332",
            "latitude": 33.7779083,
            "longitude": -84.3962402
         },
         "name": "Couchella Music & Arts Festival",
         "id": "592586847527069"
      },
      {
         "category": "Local business",
         "category_list": [
            {
               "id": "187133811318958",
               "name": "Business Services"
            },
            {
               "id": "200600219953504",
               "name": "Shopping &amp; Retail"
            }
         ],
         "location": {
            "street": "530 Means St NW",
            "city": "Atlanta",
            "state": "GA",
            "country": "United States",
            "zip": "30318",
            "latitude": 33.7726746,
            "longitude": -84.405304
         },
         "name": "Labrador Regulated Info",
         "id": "108003409543984"
      },
      {
         "category": "Local business",
         "category_list": [
            {
               "id": "191681657527859",
               "name": "Fitness Center"
            }
         ],
         "location": {
            "street": "1000 Marietta St NW",
            "city": "Atlanta",
            "state": "GA",
            "country": "United States",
            "zip": "30318",
            "latitude": 33.7736261,
            "longitude": -84.4050458
         },
         "name": "Snapp Fitness",
         "id": "104194909716355"
      },
      {
         "category": "Organization",
         "category_list": [
            {
               "id": "365182493518892",
               "name": "School"
            }
         ],
         "location": {
            "street": "",
            "city": "Atlanta",
            "state": "GA",
            "country": "United States",
            "zip": "",
            "latitude": 33.777524,
            "longitude": -84.396128
         },
         "name": "Georgia Institute of Technology School of Computer Science",
         "id": "107404749289270"
      },
      {
         "category": "Local business",
         "category_list": [
            {
               "id": "196941987012177",
               "name": "Limo Service"
            },
            {
               "id": "180410821995109",
               "name": "Automotive"
            }
         ],
         "location": {
            "street": "554 Centennial Olympic Park Dr NW",
            "city": "Atlanta",
            "state": "GA",
            "country": "United States",
            "zip": "30313-2302",
            "latitude": 33.7695198,
            "longitude": -84.3924637
         },
         "name": "Executive Priority Limousine Service",
         "id": "158231647533268"
      },
      {
         "category": "Organization",
         "category_list": [
            {
               "id": "188662441155211",
               "name": "Community &amp; Government"
            }
         ],
         "location": {
            "street": "",
            "city": "Atlanta",
            "state": "GA",
            "country": "United States",
            "zip": "30318",
            "latitude": 33.778459912407,
            "longitude": -84.398129308983
         },
         "name": "Marcus Nanotechnology Building",
         "id": "105798642787745"
      },
      {
         "category": "Education",
         "category_list": [
            {
               "id": "151676848220295",
               "name": "Education"
            }
         ],
         "location": {
            "street": "Cherry Emerson 212, 215, And 217, 310 Ferst Dr",
            "city": "Atlanta",
            "state": "GA",
            "country": "United States",
            "zip": "30332",
            "latitude": 33.7724,
            "longitude": -84.3957
         },
         "name": "Jordan Lab",
         "id": "23099245131"
      },
      {
         "category": "Non-profit organization",
         "category_list": [
            {
               "id": "152880021441864",
               "name": "Community Organization"
            }
         ],
         "location": {
            "street": "266 Ferst Drive, NW",
            "city": "Atlanta",
            "state": "GA",
            "country": "United States",
            "zip": "30318",
            "latitude": 33.7768059,
            "longitude": -84.3949203
         },
         "name": "Walk n' Roll for Spina Bifida Georgia",
         "id": "712341058905836"
      },
      {
         "category": "Local business",
         "category_list": [
            {
               "id": "2500",
               "name": "Local Business"
            }
         ],
         "location": {
            "street": "",
            "city": "Atlanta",
            "state": "GA",
            "country": "United States",
            "zip": "30318",
            "latitude": 33.778393206808,
            "longitude": -84.40443991616
         },
         "name": "Couch Building",
         "id": "138649549510175"
      },
      {
         "category": "Local business",
         "category_list": [
            {
               "id": "2500",
               "name": "Local Business"
            }
         ],
         "location": {
            "street": "1 Coca Cola Plz NW",
            "city": "Atlanta",
            "state": "GA",
            "country": "United States",
            "zip": "30313-2420",
            "latitude": 33.7711868,
            "longitude": -84.396286
         },
         "name": "Tccc",
         "id": "105165319549424"
      },
      {
         "category": "Local business",
         "category_list": [
            {
               "id": "2500",
               "name": "Local Business"
            }
         ],
         "location": {
            "street": "",
            "city": "Atlanta",
            "state": "GA",
            "country": "United States",
            "zip": "30318",
            "latitude": 33.769102,
            "longitude": -84.40521
         },
         "name": "The One way aka 5th ward",
         "id": "187647671286370"
      },
      {
         "category": "Organization",
         "category_list": [
            {
               "id": "198503866828628",
               "name": "Organization"
            }
         ],
         "location": {
            "street": "350 Ferst Dr NW",
            "city": "Atlanta",
            "state": "GA",
            "country": "United States",
            "zip": "30332",
            "latitude": 33.7779083,
            "longitude": -84.3962402
         },
         "name": "Georgia Tech African Student Association",
         "id": "193127317422926"
      },
      {
         "category": "Local business",
         "category_list": [
            {
               "id": "2500",
               "name": "Local Business"
            }
         ],
         "location": {
            "street": "704 Research Ave",
            "city": "Atlanta",
            "state": "GA",
            "country": "United States",
            "zip": "30332-0900",
            "latitude": 33.775977422738,
            "longitude": -84.394635018055
         },
         "name": "Georgia Tech Archives",
         "id": "180558332916"
      },
      {
         "category": "Organization",
         "category_list": [
            {
               "id": "108051929285833",
               "name": "College &amp; University"
            },
            {
               "id": "198503866828628",
               "name": "Organization"
            }
         ],
         "location": {
            "street": "",
            "city": "Atlanta",
            "state": "GA",
            "country": "United States",
            "zip": "30332",
            "latitude": 33.777503650256,
            "longitude": -84.400748275146,
            "located_in": "175550429221"
         },
         "name": "Pi Tau Sigma - Georgia Tech Nu",
         "id": "417257208309231"
      },
      {
         "category": "Church/religious organization",
         "category_list": [
            {
               "id": "187714557925874",
               "name": "Religious Organization"
            }
         ],
         "location": {
            "street": "",
            "city": "Atlanta",
            "state": "GA",
            "country": "United States",
            "zip": "30332",
            "latitude": 33.775007548865,
            "longitude": -84.393161548882
         },
         "name": "Georgia Tech RUF",
         "id": "151468361725073"
      },
      {
         "category": "Local business",
         "category_list": [
            {
               "id": "2500",
               "name": "Local Business"
            }
         ],
         "location": {
            "street": "768 Marietta St NW",
            "city": "Atlanta",
            "state": "GA",
            "country": "United States",
            "zip": "30318-5796",
            "latitude": 33.7733154,
            "longitude": -84.4041977
         },
         "name": "Wired Retail Network",
         "id": "169864896362377"
      },
      {
         "category": "Retail and consumer merchandise",
         "category_list": [
            {
               "id": "191647907538150",
               "name": "Gift Shop"
            }
         ],
         "location": {
            "street": "794 Mariette St, NW Unit # 94203",
            "city": "Brookhaven",
            "state": "GA",
            "country": "United States",
            "zip": "30377",
            "latitude": 33.773512,
            "longitude": -84.405407
         },
         "name": "RMR4 International.info  LLC",
         "id": "99364096466"
      },
      {
         "category": "Local business",
         "category_list": [
            {
               "id": "199512783398620",
               "name": "Computer Store"
            }
         ],
         "location": {
            "street": "530 Means St NW",
            "city": "Atlanta",
            "state": "GA",
            "country": "United States",
            "zip": "30318-5793",
            "latitude": 33.7726746,
            "longitude": -84.405304
         },
         "name": "Pallas Technology",
         "id": "162140373803656"
      },
      {
         "category": "Local business",
         "category_list": [
            {
               "id": "165665860162999",
               "name": "Dorm"
            }
         ],
         "location": {
            "street": "855 McMillan St NW",
            "city": "Atlanta",
            "state": "GA",
            "country": "United States",
            "zip": "30318",
            "latitude": 33.778156965123,
            "longitude": -84.403715211577
         },
         "name": "Fitten",
         "id": "144104068956765"
      },
      {
         "category": "Hotel",
         "category_list": [
            {
               "id": "164243073639257",
               "name": "Hotel"
            }
         ],
         "location": {
            "street": "244 North Ave NW",
            "city": "Atlanta",
            "state": "GA",
            "country": "United States",
            "zip": "30313",
            "latitude": 33.771167111809,
            "longitude": -84.395824716687
         },
         "name": "Hampton Inn Atlanta Georgia Tech",
         "id": "123743377636770"
      },
      {
         "category": "Local business",
         "category_list": [
            {
               "id": "199236533423806",
               "name": "Beauty Salon"
            }
         ],
         "location": {
            "street": "350 Ferst Dr NW",
            "city": "Atlanta",
            "state": "GA",
            "country": "United States",
            "zip": "30301",
            "latitude": 33.7722778,
            "longitude": -84.3967285
         },
         "name": "Famous Hair",
         "id": "163406510343834"
      },
      {
         "category": "Automotive",
         "category_list": [
            {
               "id": "139492049448901",
               "name": "Automotive Parts &amp; Accessories"
            }
         ],
         "location": {
            "street": "10 Perimeter Dr",
            "city": "Atlanta",
            "state": "GA",
            "country": "United States",
            "zip": "30341",
            "latitude": 33.7736282,
            "longitude": -84.4008102
         },
         "name": "Big Boy Truck Parts",
         "id": "312668372246054"
      },
      {
         "category": "Local business",
         "category_list": [
            {
               "id": "177721448951559",
               "name": "Workplace &amp; Office"
            },
            {
               "id": "187133811318958",
               "name": "Business Services"
            },
            {
               "id": "175962259115742",
               "name": "Food &amp; Beverage Service &amp; Distribution"
            }
         ],
         "location": {
            "street": "1 Coca Cola Plz NW",
            "city": "Atlanta",
            "state": "GA",
            "country": "United States",
            "zip": "30313",
            "latitude": 33.770779546742,
            "longitude": -84.397408903773
         },
         "name": "Coca-Cola Headquarters",
         "id": "112105398844338"
      },
      {
         "category": "Local business",
         "category_list": [
            {
               "id": "110249975723427",
               "name": "Office Supplies"
            }
         ],
         "location": {
            "street": "590 Means St NW",
            "city": "Atlanta",
            "state": "GA",
            "country": "United States",
            "zip": "30318-0508",
            "latitude": 33.7728386,
            "longitude": -84.4057999
         },
         "name": "Office Works",
         "id": "135264373189423"
      },
      {
         "category": "Local business",
         "category_list": [
            {
               "id": "187133811318958",
               "name": "Business Services"
            },
            {
               "id": "188662441155211",
               "name": "Community &amp; Government"
            }
         ],
         "location": {
            "street": "535 Means St NW",
            "city": "Atlanta",
            "state": "GA",
            "country": "United States",
            "zip": "30318-5729",
            "latitude": 33.772953,
            "longitude": -84.4052734
         },
         "name": "Independent Media Artists of Georgia Etc",
         "id": "134529953262985"
      },
      {
         "category": "Local business",
         "category_list": [
            {
               "id": "109976259083543",
               "name": "Sports Venue &amp; Stadium"
            }
         ],
         "location": {
            "street": "150 Bobby Dodd Way NW",
            "city": "Atlanta",
            "state": "GA",
            "country": "United States",
            "zip": "30313",
            "latitude": 33.772781622403,
            "longitude": -84.392930904373
         },
         "name": "Bobby Dodd Stadium at Historic Grant Field",
         "id": "110361305686344"
      },
      {
         "category": "Local business",
         "category_list": [
            {
               "id": "2500",
               "name": "Local Business"
            }
         ],
         "location": {
            "street": "740 Ferst Dr NW",
            "city": "Atlanta",
            "state": "GA",
            "country": "United States",
            "zip": "30332",
            "latitude": 33.77529595,
            "longitude": -84.40192408
         },
         "name": "GT HPV Vaccine Campaign",
         "id": "62565591894"
      },
      {
         "category": "Book store",
         "category_list": [
            {
               "id": "197048876974331",
               "name": "Book Store"
            }
         ],
         "location": {
            "street": "748 Marietta St NW",
            "city": "Atlanta",
            "state": "GA",
            "country": "United States",
            "zip": "30318",
            "latitude": 33.7729607,
            "longitude": -84.4036026
         },
         "name": "Engineer's Bookstore",
         "id": "14948822900"
      },
      {
         "category": "Organization",
         "category_list": [
            {
               "id": "198503866828628",
               "name": "Organization"
            }
         ],
         "location": {
            "street": "245 4th St NW",
            "city": "Atlanta",
            "state": "GA",
            "country": "United States",
            "zip": "30332",
            "latitude": 33.7757072,
            "longitude": -84.3950653
         },
         "name": "IDSA Georgia Tech",
         "id": "389902721074148"
      },
      {
         "category": "Non-profit organization",
         "category_list": [
            {
               "id": "226326230802065",
               "name": "Charity Organization"
            },
            {
               "id": "152880021441864",
               "name": "Community Organization"
            }
         ],
         "location": {
            "street": "",
            "city": "Atlanta",
            "state": "GA",
            "country": "United States",
            "zip": "",
            "latitude": 33.773985222343,
            "longitude": -84.407300678814
         },
         "name": "HandsOn Tech Atlanta",
         "id": "250156511704815"
      },
      {
         "category": "Local business",
         "category_list": [
            {
               "id": "176831012360626",
               "name": "Professional Services"
            },
            {
               "id": "189018581118681",
               "name": "Sports Club"
            }
         ],
         "location": {
            "street": "150 Bobby Dodd Way NW",
            "city": "Atlanta",
            "state": "GA",
            "country": "United States",
            "zip": "30301",
            "latitude": 33.7737541,
            "longitude": -84.3921204
         },
         "name": "Isp Sports Inc",
         "id": "165991046761197"
      },
      {
         "category": "Media/news/publishing",
         "category_list": [
            {
               "id": "133436743388217",
               "name": "Arts &amp; Entertainment"
            }
         ],
         "location": {
            "street": "350 Ferst Dr NW",
            "city": "Atlanta",
            "state": "GA",
            "country": "United States",
            "zip": "30332-0630",
            "latitude": 33.7779083,
            "longitude": -84.3962402
         },
         "name": "\"Lost in the Stacks\" on WREK Radio",
         "id": "259175313212"
      },
      {
         "category": "Landmark",
         "category_list": [
            {
               "id": "2503",
               "name": "Landmark"
            }
         ],
         "location": {
            "street": "640 Strong St NW",
            "city": "Atlanta",
            "state": "GA",
            "country": "United States",
            "zip": "30318",
            "latitude": 33.77042,
            "longitude": -84.40347
         },
         "name": "Food Processing Technology Building",
         "id": "674244579349727"
      },
      {
         "category": "Local business",
         "category_list": [
            {
               "id": "165264720195968",
               "name": "Sorority &amp; Fraternity"
            }
         ],
         "location": {
            "street": "260 Ferst Dr NW",
            "city": "Atlanta",
            "state": "GA",
            "country": "United States",
            "zip": "30318",
            "latitude": 33.776950826948,
            "longitude": -84.39519996902
         },
         "name": "Pi Kappa Alpha - Georgia Tech",
         "id": "211408658879699"
      },
      {
         "category": "Local business",
         "category_list": [
            {
               "id": "2500",
               "name": "Local Business"
            }
         ],
         "location": {
            "street": "",
            "city": "Atlanta",
            "state": "GA",
            "country": "United States",
            "zip": "30318",
            "latitude": 33.7745883248,
            "longitude": -84.398839833228
         },
         "name": "Band Table",
         "id": "112688222120366"
      },
      {
         "category": "University",
         "category_list": [
            {
               "id": "400062273344681",
               "name": "Engineering Service"
            },
            {
               "id": "191921914160604",
               "name": "Educational Research"
            }
         ],
         "location": {
            "street": "640 Strong St NW",
            "city": "Atlanta",
            "state": "GA",
            "country": "United States",
            "zip": "30318",
            "latitude": 33.7705002,
            "longitude": -84.4033279
         },
         "name": "Agricultural Technology Research Program - GTRI",
         "id": "145628525486175"
      },
      {
         "category": "Local business",
         "category_list": [
            {
               "id": "192803624072087",
               "name": "Fast Food Restaurant"
            }
         ],
         "location": {
            "street": "881 Marietta St NW",
            "city": "Atlanta",
            "state": "GA",
            "country": "United States",
            "zip": "30318",
            "latitude": 33.7764893,
            "longitude": -84.4073181
         },
         "name": "Delia's Chicken Sausage Stand- Westside",
         "id": "402278413244985"
      },
      {
         "category": "Non-profit organization",
         "category_list": [
            {
               "id": "2603",
               "name": "Non-Profit Organization"
            }
         ],
         "location": {
            "street": "150 4th St NW",
            "city": "Atlanta",
            "state": "GA",
            "country": "United States",
            "zip": "30313",
            "latitude": 33.7750511,
            "longitude": -84.3924789
         },
         "name": "Alpha Iota Delta of Chi Psi Advisory Board",
         "id": "1055873604429979"
      },
      {
         "category": "Local business",
         "category_list": [
            {
               "id": "149998721725634",
               "name": "Automotive Repair"
            }
         ],
         "location": {
            "street": "806 Northside Dr NW",
            "city": "Atlanta",
            "state": "GA",
            "country": "United States",
            "zip": "30318-5785",
            "latitude": 33.7761116,
            "longitude": -84.4071732
         },
         "name": "AAMCO Transmissions",
         "id": "162611880429074"
      },
      {
         "category": "Local business",
         "category_list": [
            {
               "id": "2500",
               "name": "Local Business"
            }
         ],
         "location": {
            "street": "530 Means St NW",
            "city": "Atlanta",
            "state": "GA",
            "country": "United States",
            "zip": "30318-5793",
            "latitude": 33.7726746,
            "longitude": -84.405304
         },
         "name": "Access",
         "id": "148287621880684"
      },
      {
         "category": "Organization",
         "category_list": [
            {
               "id": "198503866828628",
               "name": "Organization"
            }
         ],
         "location": {
            "street": "",
            "city": "Atlanta",
            "state": "GA",
            "country": "United States",
            "zip": "30332",
            "latitude": 33.772214220556,
            "longitude": -84.395589723587
         },
         "name": "Ramblin' Rocket Club",
         "id": "378644735500769"
      },
      {
         "category": "Local business",
         "category_list": [
            {
               "id": "162183907165552",
               "name": "Graphic Design"
            }
         ],
         "location": {
            "street": "384 Northyards Blvd NW",
            "city": "Atlanta",
            "state": "GA",
            "country": "United States",
            "zip": "30313-2441",
            "latitude": 33.7685051,
            "longitude": -84.4021606
         },
         "name": "Unboundary",
         "id": "134517549932890"
      },
      {
         "category": "Bar",
         "category_list": [
            {
               "id": "187623434605561",
               "name": "Adult Entertainment"
            },
            {
               "id": "110290705711626",
               "name": "Bar"
            }
         ],
         "location": {
            "street": "806 Marietta St NW",
            "city": "Atlanta",
            "state": "GA",
            "country": "United States",
            "zip": "30318",
            "latitude": 33.7739792,
            "longitude": -84.4061279
         },
         "name": "Stilettos",
         "id": "274156666019187"
      },
      {
         "category": "Local business",
         "category_list": [
            {
               "id": "226326230802065",
               "name": "Charity Organization"
            }
         ],
         "location": {
            "street": "555 Luckie St NW",
            "city": "Atlanta",
            "state": "GA",
            "country": "United States",
            "zip": "30313",
            "latitude": 33.7693481,
            "longitude": -84.3959274
         },
         "name": "YMCA",
         "id": "385095941682319"
      },
      {
         "category": "Non-profit organization",
         "category_list": [
            {
               "id": "151676848220295",
               "name": "Education"
            }
         ],
         "location": {
            "street": "",
            "city": "Atlanta",
            "state": "GA",
            "country": "United States",
            "zip": "",
            "latitude": 33.775771,
            "longitude": -84.394016
         },
         "name": "ACE Mentor Program Atlanta",
         "id": "182543628451886"
      },
      {
         "category": "Local business",
         "category_list": [
            {
               "id": "149803325077018",
               "name": "American Restaurant"
            }
         ],
         "location": {
            "street": "810 Marietta St NW",
            "city": "Atlanta",
            "state": "GA",
            "country": "United States",
            "zip": "30318",
            "latitude": 33.7744026,
            "longitude": -84.4062729
         },
         "name": "Burger Joes",
         "id": "305239589636397"
      },
      {
         "category": "Local business",
         "category_list": [
            {
               "id": "110290705711626",
               "name": "Bar"
            }
         ],
         "location": {
            "street": "840 Marietta St NW",
            "city": "Atlanta",
            "state": "GA",
            "country": "United States",
            "zip": "30318-5573",
            "latitude": 33.775219,
            "longitude": -84.406929
         },
         "name": "Utopia Martini and Tapas Lounge",
         "id": "115734038447368"
      },
      {
         "category": "Restaurant/cafe",
         "category_list": [
            {
               "id": "110107385737667",
               "name": "New American Restaurant"
            }
         ],
         "location": {
            "street": "840 Marietta St NW",
            "city": "Atlanta",
            "state": "GA",
            "country": "United States",
            "zip": "30318",
            "latitude": 33.775219,
            "longitude": -84.406929
         },
         "name": "Acoustix Jazz (Restaurant & Lounge)",
         "id": "113110665438897"
      },
      {
         "category": "Local business",
         "category_list": [
            {
               "id": "2500",
               "name": "Local Business"
            }
         ],
         "location": {
            "street": "",
            "city": "Atlanta",
            "state": "GA",
            "country": "United States",
            "zip": "30332",
            "latitude": 33.775512825012,
            "longitude": -84.397963785379
         },
         "name": "Bunger-Henry Building",
         "id": "145541045487269"
      },
      {
         "category": "Local business",
         "category_list": [
            {
               "id": "210881938937928",
               "name": "Performance Venue"
            }
         ],
         "location": {
            "street": "349 Ferst Dr NW",
            "city": "Atlanta",
            "state": "GA",
            "country": "United States",
            "zip": "30318",
            "latitude": 33.7781372,
            "longitude": -84.3960724
         },
         "name": "An Evening With Trent Shelton",
         "id": "574998639292829"
      },
      {
         "category": "Event planning/event services",
         "category_list": [
            {
               "id": "193705277324704",
               "name": "Event Planning"
            }
         ],
         "location": {
            "street": "384 Northyards Blvd Northwest",
            "city": "Atlanta",
            "state": "GA",
            "country": "United States",
            "zip": "30318",
            "latitude": 33.7685051,
            "longitude": -84.4021606
         },
         "name": "Event Planning 241",
         "id": "162079773912695"
      },
      {
         "category": "Local business",
         "category_list": [
            {
               "id": "200600219953504",
               "name": "Shopping &amp; Retail"
            }
         ],
         "location": {
            "street": "151 6th St NW",
            "city": "Atlanta",
            "state": "GA",
            "country": "United States",
            "zip": "30313",
            "latitude": 33.77819,
            "longitude": -84.39244
         },
         "name": "Georgia Tech Univ Facility Dept",
         "id": "117478708591961"
      },
      {
         "category": "Local business",
         "category_list": [
            {
               "id": "181814521855864",
               "name": "Locksmith"
            }
         ],
         "location": {
            "street": "710 Marietta St NW",
            "city": "Atlanta",
            "state": "GA",
            "country": "United States",
            "zip": "30318",
            "latitude": 33.7721786,
            "longitude": -84.4019318
         },
         "name": "Triple A Locksmith",
         "id": "100408646975301"
      },
      {
         "category": "Local business",
         "category_list": [
            {
               "id": "134381433294944",
               "name": "Pharmacy"
            }
         ],
         "location": {
            "street": "387 Technology Cir NW",
            "city": "Atlanta",
            "state": "GA",
            "country": "United States",
            "zip": "30313-2411",
            "latitude": 33.7689018,
            "longitude": -84.4016418
         },
         "name": "Altea Therapeutics-Atl",
         "id": "169111553106344"
      },
      {
         "category": "Local business",
         "category_list": [
            {
               "id": "187133811318958",
               "name": "Business Services"
            },
            {
               "id": "367960506579477",
               "name": "Arts &amp; Marketing"
            }
         ],
         "location": {
            "street": "512 Means St NW",
            "city": "Atlanta",
            "state": "GA",
            "country": "United States",
            "zip": "30318-5788",
            "latitude": 33.7726135,
            "longitude": -84.4050903
         },
         "name": "Cox Radio Interactive",
         "id": "112111922186540"
      }
   ],
   "paging": {
      "next": "https://graph.facebook.com/v2.4/search?limit=5000&offset=5000&type=place&format=json&center=33.774552,-84.398914&distance=850&access_token=CAACEdEose0cBACRLNl3WBKsUhvEqjuD872LjG9vEUHzdKyDn556PR3P1WyQpa0XT5DD644h8UG1LTWBEiYR0kMJpvcZCxbD9QAtO3IpZCIG0yMzAR9uI6zKvTcUEsCA2iB8DWLMm0OKDLbNL8ZAcEz1TndxXPKSQ3No1bRfLdzaDZAf5aNd4gOBeTlk68GlWRhBF0nky9Y7c1mSBkxeM&__after_id=enc_AdCTaXv4Mf1HnNA9UVD3eZC19wUPGyubeHiZBWxVK32JosbZAmkPTY2NbXYUHBN58hZAw0zUbdJHD6k5MNttRIfS7cZAt"
   }
}